{
  "pointsOfInterest": [
    {
      "id": "park-144058337",
      "name": "Unnamed Park",
      "coordinates": [-73.5735556, 45.4958313],
      "address": "Address unavailable",
      "type": "park",
      "openingHours": {
        "isOpen": true,
        "hours": "Dawn to dusk"
      },
      "description": "Public park"
    },
    {
      "id": "park-340406841",
      "name": "Unnamed Park",
      "coordinates": [-73.5844865, 45.4943524],
      "address": "Address unavailable",
      "type": "park",
      "openingHours": {
        "isOpen": true,
        "hours": "Dawn to dusk"
      },
      "description": "Public park"
    },
    {
      "id": "park-1299465613",
      "name": "Parc Percy-Walters",
      "coordinates": [-73.5851137, 45.4992485],
      "address": "40 Avenue McGregor, Montréal, Québec, H3G 2J8",
      "type": "park",
      "openingHours": {
        "isOpen": false,
        "hours": "Mo-Su 06:00-23:00"
      },
      "description": "Public park (https://montreal.ca/en/places/parc-percy-walters)"
    },
    {
      "id": "restaurant-245512739",
      "name": "3 Brasseurs",
      "coordinates": [-73.5754903, 45.497185],
      "address": "1356 Rue Sainte-Catherine Ouest, Montréal, Québec, H3G 1P6",
      "type": "restaurant",
      "openingHours": {
        "isOpen": true,
        "hours": "Typically 11:00-22:00"
      },
      "description": "Burger, Pizza;seafood restaurant (https://www.les3brasseurs.ca/fr/trouver-un-3-brasseurs/crescent/)"
    },
    {
      "id": "restaurant-245512741",
      "name": "Le Garden Room",
      "coordinates": [-73.5774768, 45.4972187],
      "address": "1445 Rue Bishop, Montréal, Québec",
      "type": "restaurant",
      "openingHours": {
        "isOpen": false,
        "hours": "Mo-We 12:00-23:00; Th-Su 12:00-02:00"
      },
      "description": "Thai restaurant (https://www.legardenroom.com/)"
    },
    {
      "id": "bus-504318024",
      "name": "Station Guy-Concordia (St-Mathieu/De Maisonneuve)",
      "coordinates": [-73.580727, 45.494608],
      "address": "Guy-Concordia, 1445 Guy St, Montreal, Quebec H3H 2L5",
      "type": "bus",
      "openingHours": {
        "isOpen": true,
        "hours": "24/7"
      },
      "description": "Bus stop"
    },
    {
      "id": "bus-504318025",
      "name": "Station Guy-Concordia (Guy / De Maisonneuve)",
      "coordinates": [-73.579078, 45.495688],
      "address": "Guy-Concordia, 1445 Guy St, Montreal, Quebec H3H 2L5",
      "type": "bus",
      "openingHours": {
        "isOpen": true,
        "hours": "24/7"
      },
      "description": "Bus stop"
    },
    {
      "id": "restaurant-964119609",
      "name": "Sushi Ste-Catherine",
      "coordinates": [-73.5794979, 45.4938203],
      "address": "1801 Saint-Catherine St W, Montreal, Quebec H3H 1M2",
      "type": "restaurant",
      "openingHours": {
        "isOpen": true,
        "hours": "Typically 11:00-22:00"
      },
      "description": "Restaurant"
    },
    {
      "id": "restaurant-1192154206",
      "name": "Les Trois amigos",
      "coordinates": [-73.578929, 45.494302],
      "address": "1657 Rue Sainte-Catherine Ouest, Montréal, QC, H3H 2H8",
      "type": "restaurant",
      "openingHours": {
        "isOpen": true,
        "hours": "Typically 11:00-22:00"
      },
      "description": "Mexican restaurant (http://www.3amigosrestaurant.com)"
    },
    {
      "id": "restaurant-1192154324",
      "name": "BBQ Coréen PONY",
      "coordinates": [-73.5781834, 45.494505],
      "address": "1608 Saint-Catherine St W, Montreal, Quebec H3H 2S7",
      "type": "restaurant",
      "openingHours": {
        "isOpen": false,
        "hours": "Mo-We 17:00-23:00, Th 17:00-24:00, Fr,Sa 11:30-01:00, Su 11:30-23:00"
      },
      "description": "Restaurant"
    },
    {
      "id": "library-1199684762",
      "name": "Webster Library",
      "coordinates": [-73.5779337, 45.4968158],
      "address": "Pavillion J.W. McConnell Bldg, 1400 Maisonneuve Blvd W, Montreal, Quebec H3G 1M8",
      "type": "library",
      "openingHours": {
        "isOpen": true,
        "hours": "24/7"
      },
      "description": "Public library"
    },
    {
      "id": "restaurant-1201288275",
      "name": "Wienstein & Gavino's",
      "coordinates": [-73.5767685, 45.4975169],
      "address": "1434 Crescent Street, Montréal, Québec",
      "type": "restaurant",
      "openingHours": {
        "isOpen": true,
        "hours": "Typically 11:00-22:00"
      },
      "description": "Italian restaurant (https://www.wgmtl.com/)"
    },
    {
      "id": "restaurant-1201303591",
      "name": "Ocha Bubble Tea",
      "coordinates": [-73.5788086, 45.4944023],
      "address": "1651 Rue Sainte-Catherine Ouest, Montréal, Québec",
      "type": "restaurant",
      "openingHours": {
        "isOpen": true,
        "hours": "Typically 11:00-22:00"
      },
      "description": "Bubble_tea restaurant"
    },
    {
      "id": "restaurant-1202561108",
      "name": "Le Pois Penché",
      "coordinates": [-73.5760644, 45.4992991],
      "address": "1230 Blvd. De Maisonneuve Ouest, Montreal, Quebec H3G 1V9",
      "type": "restaurant",
      "openingHours": {
        "isOpen": true,
        "hours": "Typically 11:00-22:00"
      },
      "description": "Restaurant"
    },
    {
      "id": "restaurant-1204313119",
      "name": "Nara Reto Lounge",
      "coordinates": [-73.5773986, 45.4984151],
      "address": "1333 Boulevard De Maisonneuve Ouest, Montréal, Québec, H3G 2R9",
      "type": "restaurant",
      "openingHours": {
        "isOpen": true,
        "hours": "Typically 11:00-22:00"
      },
      "description": "Mediterranean restaurant"
    },
    {
      "id": "restaurant-1231398324",
      "name": "Toro Sushi",
      "coordinates": [-73.5783562, 45.4976921],
      "address": "2045 Rue Bishop, Montréal, Québec",
      "type": "restaurant",
      "openingHours": {
        "isOpen": true,
        "hours": "Typically 11:00-22:00"
      },
      "description": "Sushi restaurant"
    },
    {
      "id": "restaurant-1232026780",
      "name": "Bice Restaurant",
      "coordinates": [-73.5809582, 45.4970237],
      "address": "1504 Rue Sherbrooke Ouest, Montréal, Québec, H3G 1L3",
      "type": "restaurant",
      "openingHours": {
        "isOpen": true,
        "hours": "Typically 11:00-22:00"
      },
      "description": "Restaurant"
    },
    {
      "id": "restaurant-1232026883",
      "name": "Troika",
      "coordinates": [-73.5785469, 45.4986885],
      "address": "2171 Rue Crescent, Montréal, Québec, H3G 2C1",
      "type": "restaurant",
      "openingHours": {
        "isOpen": true,
        "hours": "Typically 11:00-22:00"
      },
      "description": "French restaurant"
    },
    {
      "id": "restaurant-1232026955",
      "name": "L'Autre Saison",
      "coordinates": [-73.5783698, 45.4986283],
      "address": "2137 Rue Crescent, Montréal, Québec, H3G 2C1",
      "type": "restaurant",
      "openingHours": {
        "isOpen": true,
        "hours": "Typically 11:00-22:00"
      },
      "description": "French restaurant"
    },
    {
      "id": "restaurant-1232026967",
      "name": "L'Académie",
      "coordinates": [-73.5782196, 45.4982373],
      "address": "2100 Rue Crescent, Montréal, Québec",
      "type": "restaurant",
      "openingHours": {
        "isOpen": true,
        "hours": "Typically 11:00-22:00"
      },
      "description": "International restaurant"
    },
    {
      "id": "restaurant-1237960420",
      "name": "Restaurant Santa Lucia",
      "coordinates": [-73.5731543, 45.4990103],
      "address": "1264 Rue Stanley, Montréal, Québec",
      "type": "restaurant",
      "openingHours": {
        "isOpen": true,
        "hours": "Typically 11:00-22:00"
      },
      "description": "Italian restaurant"
    },
    {
      "id": "bus-1457825326",
      "name": "Station Guy-Concordia (Guy / De Maisonneuve)",
      "coordinates": [-73.5796058, 45.4959217],
      "address": "1445 Guy St, Montreal, Quebec H3H 2L5",
      "type": "bus",
      "openingHours": {
        "isOpen": true,
        "hours": "24/7"
      },
      "description": "Bus stop"
    },
    {
      "id": "bus-1457825329",
      "name": "Côte-des-Neiges / Summerhill",
      "coordinates": [-73.5839845, 45.4965027],
      "address": "Montreal, QC H3H 1T9",
      "type": "bus",
      "openingHours": {
        "isOpen": true,
        "hours": "24/7"
      },
      "description": "Bus stop"
    },
    {
      "id": "restaurant-1515928358",
      "name": "Pho Nguyen",
      "coordinates": [-73.5804592, 45.4943664],
      "address": "1452 Rue Saint-Mathieu, Montréal, Québec",
      "type": "restaurant",
      "openingHours": {
        "isOpen": true,
        "hours": "Typically 11:00-22:00"
      },
      "description": "Vietnamese restaurant"
    },
    {
      "id": "restaurant-2439184626",
      "name": "Shifu",
      "coordinates": [-73.578432, 45.4963864],
      "address": "1460 Rue Mackay, Montréal, Québec",
      "type": "restaurant",
      "openingHours": {
        "isOpen": false,
        "hours": "Mo-Su 11:00-23:00"
      },
      "description": "Chinese restaurant"
    },
    {
      "id": "restaurant-2671487831",
      "name": "Sushi Crescent",
      "coordinates": [-73.5765184, 45.4977438],
      "address": "1437 Crescent St, Montreal, Quebec H3G 2B2",
      "type": "restaurant",
      "openingHours": {
        "isOpen": true,
        "hours": "Typically 11:00-22:00"
      },
      "description": "Restaurant"
    },
    {
      "id": "restaurant-2700650351",
      "name": "Devi",
      "coordinates": [-73.5769484, 45.4976105],
      "address": "1450 Crescent St, Montreal, Quebec H3G 1R1",
      "type": "restaurant",
      "openingHours": {
        "isOpen": true,
        "hours": "Typically 11:00-22:00"
      },
      "description": "Indian restaurant (http://devimontreal.com/)"
    },
    {
      "id": "restaurant-3118448149",
      "name": "Qinghua Dumplings (Express)",
      "coordinates": [-73.579628, 45.4937084],
      "address": "1909 Rue Sainte-Catherine Ouest, Montréal, Québec, H3H 1M3",
      "type": "restaurant",
      "openingHours": {
        "isOpen": true,
        "hours": "Typically 11:00-22:00"
      },
      "description": "Asian, Dumpling restaurant"
    },
    {
      "id": "restaurant-3118461153",
      "name": "Restaurant Qinghua Dumpling",
      "coordinates": [-73.5809915, 45.4952594],
      "address": "1676 Avenue Lincoln, Montréal, Québec, H3H 1G9",
      "type": "restaurant",
      "openingHours": {
        "isOpen": true,
        "hours": "Typically 11:00-22:00"
      },
      "description": "Asian, Dumpling restaurant"
    },
    {
      "id": "restaurant-3344755684",
      "name": "Burritoville",
      "coordinates": [-73.5787978, 45.4978734],
      "address": "2055 Rue Bishop, Montréal, QC, H3G 2E9",
      "type": "restaurant",
      "openingHours": {
        "isOpen": true,
        "hours": "Typically 11:00-22:00"
      },
      "description": "Restaurant"
    },
    {
      "id": "restaurant-3370726297",
      "name": "Eggspectation",
      "coordinates": [-73.5771409, 45.4987402],
      "address": "1313 De Maisonneuve West, Montréal, Québec",
      "type": "restaurant",
      "openingHours": {
        "isOpen": false,
        "hours": "Mo-Su 06:00-17:00"
      },
      "description": "Breakfast restaurant"
    },
    {
      "id": "restaurant-4026644598",
      "name": "Allô! Mon Coco",
      "coordinates": [-73.5801911, 45.4947087],
      "address": "1684 Boulevard De Masonneuve Ouest, Montréal, Québec",
      "type": "restaurant",
      "openingHours": {
        "isOpen": false,
        "hours": "Mo-Su 06:00-16:00"
      },
      "description": "Breakfast restaurant (https://allomoncoco.com/)"
    },
    {
      "id": "restaurant-4028151693",
      "name": "Château Kabab",
      "coordinates": [-73.580135, 45.4958917],
      "address": "2140 Guy St, Montreal, Quebec H3H 2N4",
      "type": "restaurant",
      "openingHours": {
        "isOpen": true,
        "hours": "Typically 11:00-22:00"
      },
      "description": "Persian restaurant"
    },
    {
      "id": "bus-4030794085",
      "name": "René-Lévesque / Bishop",
      "coordinates": [-73.5737142, 45.4954342],
      "address": "Montreal, QC H3G 2M5",
      "type": "bus",
      "openingHours": {
        "isOpen": true,
        "hours": "24/7"
      },
      "description": "Bus stop"
    },
    {
      "id": "restaurant-4059079061",
      "name": "Ferrari Restaurant - Café",
      "coordinates": [-73.5766199, 45.496838],
      "address": "1407 Rue Bishop, Montréal, Québec",
      "type": "restaurant",
      "openingHours": {
        "isOpen": true,
        "hours": "Typically 11:00-22:00"
      },
      "description": "Italian restaurant (https://restoferrari.ca/)"
    },
    {
      "id": "restaurant-4059079062",
      "name": "Man-na",
      "coordinates": [-73.5769592, 45.4970119],
      "address": "1421 Rue Bishop, Montréal, Québec",
      "type": "restaurant",
      "openingHours": {
        "isOpen": true,
        "hours": "Typically 11:00-22:00"
      },
      "description": "Korean restaurant"
    },
    {
      "id": "restaurant-4059085456",
      "name": "Pizza Hut",
      "coordinates": [-73.5771979, 45.4971162],
      "address": "1431 Rue bishop, Montréal, Québec, H3G 2E4",
      "type": "restaurant",
      "openingHours": {
        "isOpen": false,
        "hours": "Mo-Th 10:30-23:00, Fr-Su 10:30-24:00"
      },
      "description": "Pizza restaurant (https://www.pizzahut.ca/huts/ca-1/R34601/)"
    },
    {
      "id": "restaurant-4059093099",
      "name": "Messa 14",
      "coordinates": [-73.5770222, 45.497056],
      "address": "1425 Rue Bishop, Montréal, Québec",
      "type": "restaurant",
      "openingHours": {
        "isOpen": true,
        "hours": "Typically 11:00-22:00"
      },
      "description": "Mexican restaurant (http://www.mesa14.com/)"
    },
    {
      "id": "restaurant-4059100816",
      "name": "Maison Chaïshaï",
      "coordinates": [-73.5781353, 45.4975759],
      "address": "2005 Rue Bishop, Montréal, Québec",
      "type": "restaurant",
      "openingHours": {
        "isOpen": true,
        "hours": "Typically 11:00-22:00"
      },
      "description": "Indian restaurant (http://www.ordercharcos.com/)"
    },
    {
      "id": "restaurant-4059117065",
      "name": "Maison Inja - Cuisine Perse",
      "coordinates": [-73.5804339, 45.4976883],
      "address": "1458 Sherbrooke St W, Montreal, Quebec H3G 2S8",
      "type": "restaurant",
      "openingHours": {
        "isOpen": true,
        "hours": "Typically 11:00-22:00"
      },
      "description": "Restaurant"
    },
    {
      "id": "restaurant-4059166319",
      "name": "Cocktail Hawaii",
      "coordinates": [-73.5800075, 45.4952229],
      "address": "1645 Maisonneuve Blvd W, Montreal, Quebec H3H 2N3",
      "type": "restaurant",
      "openingHours": {
        "isOpen": true,
        "hours": "Typically 11:00-22:00"
      },
      "description": "Restaurant"
    },
    {
      "id": "restaurant-4059413912",
      "name": "NosThés",
      "coordinates": [-73.5781872, 45.4949266],
      "address": "1609 Saint-Catherine St W, Montreal, Quebec H3H 1L8",
      "type": "restaurant",
      "openingHours": {
        "isOpen": true,
        "hours": "Typically 11:00-22:00"
      },
      "description": "Restaurant"
    },
    {
      "id": "restaurant-4060351795",
      "name": "Restaurant Traditions",
      "coordinates": [-73.58133, 45.4962984],
      "address": "2330 Guy St, Montreal, Quebec H3H 1E1",
      "type": "restaurant",
      "openingHours": {
        "isOpen": true,
        "hours": "Typically 11:00-22:00"
      },
      "description": "Mediterranean restaurant"
    },
    {
      "id": "restaurant-4060371127",
      "name": "Chez Chen",
      "coordinates": [-73.580315, 45.4958601],
      "address": "1618 Avenue Lincoln, Montréal, Québec",
      "type": "restaurant",
      "openingHours": {
        "isOpen": true,
        "hours": "Typically 11:00-22:00"
      },
      "description": "Chinese restaurant"
    },
    {
      "id": "restaurant-4060378477",
      "name": "Angela Pizzeria & Restaurant",
      "coordinates": [-73.5799701, 45.4948995],
      "address": "1662 Boulevard de Maisonneuve O, Montréal, Québec",
      "type": "restaurant",
      "openingHours": {
        "isOpen": true,
        "hours": "Typically 11:00-22:00"
      },
      "description": "Pizza restaurant"
    },
    {
      "id": "restaurant-4060393298",
      "name": "Student Tasty Biryani",
      "coordinates": [-73.5804048, 45.4957837],
      "address": "1620 Avenue Lincoln, Montréal, Québec",
      "type": "restaurant",
      "openingHours": {
        "isOpen": true,
        "hours": "Typically 11:00-22:00"
      },
      "description": "Restaurant"
    },
    {
      "id": "restaurant-4354761089",
      "name": "Comptoir du chef",
      "coordinates": [-73.5800322, 45.4961676],
      "address": "2153 Guy St, Montreal, Quebec H3H 2R9",
      "type": "restaurant",
      "openingHours": {
        "isOpen": true,
        "hours": "Typically 11:00-22:00"
      },
      "description": "Restaurant"
    },
    {
      "id": "restaurant-4467655523",
      "name": "Thali Cuisine Indienne",
      "coordinates": [-73.580681, 45.4931141],
      "address": "1409 Rue Saint-Marc, Montréal, QC, H3H 2G4",
      "type": "restaurant",
      "openingHours": {
        "isOpen": false,
        "hours": "Tu-Su 11:30-22:00"
      },
      "description": "Indian restaurant (https://www.thalimontreal.com)"
    },
    {
      "id": "restaurant-4467723089",
      "name": "Ici Restaurant Coréen",
      "coordinates": [-73.5807098, 45.4931293],
      "address": "1413 Rue Saint-Marc, Montréal, QC, H3H 1M1",
      "type": "restaurant",
      "openingHours": {
        "isOpen": false,
        "hours": "Mo,We-Su 11:00-21:00; Tu 15:00-21:00"
      },
      "description": "Korean restaurant"
    },
    {
      "id": "restaurant-4475368798",
      "name": "La Belle et le Bœuf",
      "coordinates": [-73.5786152, 45.4941505],
      "address": "1620 Saint-Catherine St W, Montreal, Quebec H3A 1L9",
      "type": "restaurant",
      "openingHours": {
        "isOpen": false,
        "hours": "Su-We 18:00-22:00; Th-Sa 12:30-22:00+"
      },
      "description": "Restaurant"
    },
    {
      "id": "restaurant-4664652690",
      "name": "Burger bar crescent",
      "coordinates": [-73.5771059, 45.4980036],
      "address": "1465 Rue Crescent, Montréal, Québec, H3G 2B2",
      "type": "restaurant",
      "openingHours": {
        "isOpen": true,
        "hours": "Typically 11:00-22:00"
      },
      "description": "Restaurant"
    },
    {
      "id": "restaurant-4698123619",
      "name": "Ganadara Restaurant",
      "coordinates": [-73.5813752, 45.4936916],
      "address": "1862 Boulevard De Maisonneuve Ouest, Montréal, QC, H3H 1J8",
      "type": "restaurant",
      "openingHours": {
        "isOpen": true,
        "hours": "Typically 11:00-22:00"
      },
      "description": "Korean restaurant"
    },
    {
      "id": "restaurant-4698123625",
      "name": "Le Roi du Wonton",
      "coordinates": [-73.5819143, 45.4938845],
      "address": "2125 Rue Saint-Marc, Montréal, QC, H3H 2P1",
      "type": "restaurant",
      "openingHours": {
        "isOpen": false,
        "hours": "Mo-Sa 11:00-21:00"
      },
      "description": "Chinese restaurant"
    },
    {
      "id": "restaurant-4708772405",
      "name": "Yama",
      "coordinates": [-73.5756479, 45.4982954],
      "address": "1415 Rue de la Montagne, Montréal, QC H3G 1Z3",
      "type": "restaurant",
      "openingHours": {
        "isOpen": true,
        "hours": "Typically 11:00-22:00"
      },
      "description": "Restaurant"
    },
    {
      "id": "restaurant-4711803932",
      "name": "COQCOR",
      "coordinates": [-73.5768926, 45.4948149],
      "address": "1237 Rue Guy, Montréal, Québec, H3H 2K5",
      "type": "restaurant",
      "openingHours": {
        "isOpen": false,
        "hours": "12:00-22:00"
      },
      "description": "Korean_fried_chicken restaurant"
    },
    {
      "id": "restaurant-4711810141",
      "name": "Chez la Mere Michel",
      "coordinates": [-73.5762712, 45.494555],
      "address": "1209 Rue Guy, Montréal, Québec, H3H 2K5",
      "type": "restaurant",
      "openingHours": {
        "isOpen": true,
        "hours": "Typically 11:00-22:00"
      },
      "description": "Restaurant"
    },
    {
      "id": "restaurant-4711843814",
      "name": "Trattoria Trestevere",
      "coordinates": [-73.5749645, 45.4969078],
      "address": "1237 Crescent St, Montreal, Quebec H3G 2B1",
      "type": "restaurant",
      "openingHours": {
        "isOpen": true,
        "hours": "Typically 11:00-22:00"
      },
      "description": "Italian restaurant"
    },
    {
      "id": "restaurant-4711851564",
      "name": "Pizza Chez Danny",
      "coordinates": [-73.5745967, 45.4977746],
      "address": "1237 Rue de la Montagne, Montréal, QC H3G 1P1",
      "type": "restaurant",
      "openingHours": {
        "isOpen": true,
        "hours": "Typically 11:00-22:00"
      },
      "description": "Restaurant"
    },
    {
      "id": "restaurant-4893560522",
      "name": "Chez Hailar",
      "coordinates": [-73.5817158, 45.4962413],
      "address": "1612 Rue Sherbrooke Ouest, Montréal, Québec",
      "type": "restaurant",
      "openingHours": {
        "isOpen": false,
        "hours": "Su-Th 11:00-23:00; Fr-Sa 11:00-01:00"
      },
      "description": "Restaurant (http://www.chezhailar.com)"
    },
    {
      "id": "bus-5019241521",
      "name": "Sherbrooke / Bishop",
      "coordinates": [-73.5799549, 45.4981896],
      "address": "Montreal, QC H3G 1K4",
      "type": "bus",
      "openingHours": {
        "isOpen": true,
        "hours": "24/7"
      },
      "description": "Bus stop"
    },
    {
      "id": "restaurant-5033044641",
      "name": "Kinton Ramen",
      "coordinates": [-73.5746477, 45.4958792],
      "address": "1211 Bishop St, Montreal, Quebec H3G 2E2",
      "type": "restaurant",
      "openingHours": {
        "isOpen": true,
        "hours": "Typically 11:00-22:00"
      },
      "description": "Ramen restaurant"
    },
    {
      "id": "restaurant-5167536372",
      "name": "Chez Cora",
      "coordinates": [-73.5734504, 45.4981059],
      "address": "1240 Drummond St, Montreal, Quebec H3G 1V7",
      "type": "restaurant",
      "openingHours": {
        "isOpen": true,
        "hours": "Typically 11:00-22:00"
      },
      "description": "Breakfast restaurant (https://www.chezcora.com/)"
    },
    {
      "id": "restaurant-5403675224",
      "name": "Schlouppe Bistrot",
      "coordinates": [-73.5801261, 45.4974543],
      "address": "2159 Rue Mackay, Montréal, Québec",
      "type": "restaurant",
      "openingHours": {
        "isOpen": true,
        "hours": "Typically 11:00-22:00"
      },
      "description": "Japanese restaurant"
    },
    {
      "id": "restaurant-5408074121",
      "name": "Chai Paratha",
      "coordinates": [-73.5813992, 45.4963196],
      "address": "2340 Rue Guy, Montréal, Québec",
      "type": "restaurant",
      "openingHours": {
        "isOpen": true,
        "hours": "Typically 11:00-22:00"
      },
      "description": "Pakistani restaurant"
    },
    {
      "id": "restaurant-5415282821",
      "name": "K2 Sushi",
      "coordinates": [-73.5772792, 45.4977849],
      "address": "1468 Rue Crescent, Montréal, Québec",
      "type": "restaurant",
      "openingHours": {
        "isOpen": true,
        "hours": "Typically 11:00-22:00"
      },
      "description": "Sushi restaurant"
    },
    {
      "id": "restaurant-5526342621",
      "name": "Otto Yakitori",
      "coordinates": [-73.5799879, 45.4944677],
      "address": "1441 Rue Saint-Mathieu, Montréal, Québec",
      "type": "restaurant",
      "openingHours": {
        "isOpen": true,
        "hours": "Typically 11:00-22:00"
      },
      "description": "Restaurant"
    },
    {
      "id": "bus-6010964774",
      "name": "René-Lévesque / Guy",
      "coordinates": [-73.575437, 45.493588],
      "address": "Montreal, QC",
      "type": "bus",
      "openingHours": {
        "isOpen": true,
        "hours": "24/7"
      },
      "description": "Bus stop"
    },
    {
      "id": "bus-6010964910",
      "name": "Sherbrooke / Côte-des-Neiges",
      "coordinates": [-73.581755, 45.496397],
      "address": "Montreal, QC H3H 1T4",
      "type": "bus",
      "openingHours": {
        "isOpen": true,
        "hours": "24/7"
      },
      "description": "Bus stop"
    },
    {
      "id": "bus-6010965396",
      "name": "Sherbrooke / Saint-Mathieu",
      "coordinates": [-73.582497, 45.495555],
      "address": "Montreal, QC H3H 1E4",
      "type": "bus",
      "openingHours": {
        "isOpen": true,
        "hours": "24/7"
      },
      "description": "Bus stop"
    },
    {
      "id": "bus-6010966040",
      "name": "Station Guy-Concordia (Maisonneuve / St-Mathieu)",
      "coordinates": [-73.580236, 45.494947],
      "address": "Accès A, 1801 St Mathieu St, Montreal, Quebec H3H 1J9",
      "type": "bus",
      "openingHours": {
        "isOpen": true,
        "hours": "24/7"
      },
      "description": "Bus stop"
    },
    {
      "id": "bus-6010966051",
      "name": "Guy / Sainte-Catherine",
      "coordinates": [-73.57707, 45.494623],
      "address": "Montreal, QC H3G 1S8",
      "type": "bus",
      "openingHours": {
        "isOpen": true,
        "hours": "24/7"
      },
      "description": "Bus stop"
    },
    {
      "id": "bus-6010966279",
      "name": "De Maisonneuve / de la Montagne",
      "coordinates": [-73.576877, 45.498892],
      "address": "Montreal, QC H3G 1S8",
      "type": "bus",
      "openingHours": {
        "isOpen": true,
        "hours": "24/7"
      },
      "description": "Bus stop"
    },
    {
      "id": "bus-6010968682",
      "name": "Sainte-Catherine / Saint-Mathieu",
      "coordinates": [-73.579306, 45.493687],
      "address": "Montreal, QC H3G 1S8",
      "type": "bus",
      "openingHours": {
        "isOpen": true,
        "hours": "24/7"
      },
      "description": "Bus stop"
    },
    {
      "id": "bus-6010968827",
      "name": "René-Lévesque / Guy",
      "coordinates": [-73.575009, 45.494038],
      "address": "Montreal, QC H3G 1S8",
      "type": "bus",
      "openingHours": {
        "isOpen": true,
        "hours": "24/7"
      },
      "description": "Bus stop"
    },
    {
      "id": "bus-6010969109",
      "name": "De Maisonneuve / Bishop",
      "coordinates": [-73.578074, 45.497525],
      "address": "De Maisonneuve / Bishop",
      "type": "bus",
      "openingHours": {
        "isOpen": true,
        "hours": "24/7"
      },
      "description": "Bus stop"
    },
    {
      "id": "bus-6010969519",
      "name": "Station Guy-Concordia (De Maisonneuve/St-Mathieu)",
      "coordinates": [-73.580889, 45.49435],
      "address": "Address unavailable",
      "type": "bus",
      "openingHours": {
        "isOpen": true,
        "hours": "24/7"
      },
      "description": "Bus stop"
    },
    {
      "id": "bus-6010970018",
      "name": "Guy / René-Lévesque",
      "coordinates": [-73.574736, 45.493792],
      "address": "Montreal, QC H3H 2K7",
      "type": "bus",
      "openingHours": {
        "isOpen": true,
        "hours": "24/7"
      },
      "description": "Bus stop"
    },
    {
      "id": "bus-6010970338",
      "name": "Saint-Mathieu / Sherbrooke",
      "coordinates": [-73.582679, 45.49577],
      "address": "Montreal, QC H3H 1E3",
      "type": "bus",
      "openingHours": {
        "isOpen": true,
        "hours": "24/7"
      },
      "description": "Bus stop"
    },
    {
      "id": "bus-6010971302",
      "name": "Sherbrooke / Saint-Marc",
      "coordinates": [-73.583478, 45.494448],
      "address": "Montreal, QC H3H 1E3",
      "type": "bus",
      "openingHours": {
        "isOpen": true,
        "hours": "24/7"
      },
      "description": "Bus stop"
    },
    {
      "id": "bus-6010973631",
      "name": "du Docteur-Penfield / Redpath",
      "coordinates": [-73.583821, 45.499478],
      "address": "Montreal, QC H3G 1B8",
      "type": "bus",
      "openingHours": {
        "isOpen": true,
        "hours": "24/7"
      },
      "description": "Bus stop"
    },
    {
      "id": "bus-6010975359",
      "name": "Sainte-Catherine / de la Montagne",
      "coordinates": [-73.575059, 45.497763],
      "address": "Montreal, QC H3G 1P6",
      "type": "bus",
      "openingHours": {
        "isOpen": true,
        "hours": "24/7"
      },
      "description": "Bus stop"
    },
    {
      "id": "restaurant-6012982687",
      "name": "Poke Monster",
      "coordinates": [-73.5765657, 45.4993416],
      "address": "1225 Blvd. De Maisonneuve Ouest, Montreal, Quebec H3G 1M3",
      "type": "restaurant",
      "openingHours": {
        "isOpen": false,
        "hours": "Su-Th 10:00-15:00; Fr,Sa 10:00-17:00"
      },
      "description": "Restaurant"
    },
    {
      "id": "restaurant-6026247751",
      "name": "La Medusa",
      "coordinates": [-73.5731108, 45.4979281],
      "address": "1218 Drummond St, Montreal, Quebec H3G 1V7",
      "type": "restaurant",
      "openingHours": {
        "isOpen": true,
        "hours": "Typically 11:00-22:00"
      },
      "description": "Italian, Pizza restaurant (https://www.lamedusa.ca/)"
    },
    {
      "id": "restaurant-6454873886",
      "name": "Parma Café",
      "coordinates": [-73.574647, 45.495526],
      "address": "1202 Bishop St, Montreal, Quebec H3G 2E3",
      "type": "restaurant",
      "openingHours": {
        "isOpen": true,
        "hours": "Typically 11:00-22:00"
      },
      "description": "Restaurant"
    },
    {
      "id": "restaurant-6852479086",
      "name": "Qing Hua Dumpling",
      "coordinates": [-73.5804004, 45.4949629],
      "address": "1675 Boulevard De Maisonneuve Ouest, Montréal, Québec",
      "type": "restaurant",
      "openingHours": {
        "isOpen": false,
        "hours": "Mo-Su 11:00-22:00"
      },
      "description": "Restaurant"
    },
    {
      "id": "restaurant-6852505485",
      "name": "KimGalbi",
      "coordinates": [-73.5812241, 45.4947974],
      "address": "2100 Rue Saint-Mathieu, Montréal, Québec",
      "type": "restaurant",
      "openingHours": {
        "isOpen": true,
        "hours": "Typically 11:00-22:00"
      },
      "description": "Restaurant"
    },
    {
      "id": "metro-7052992095",
      "name": "Guy-Concordia",
      "coordinates": [-73.5798383, 45.4953736],
      "address": "1445 Guy St, Montreal, Quebec H3H 2L5",
      "type": "metro",
      "openingHours": {
        "isOpen": true,
        "hours": "Unknown"
      },
      "description": "Metro station"
    },
    {
      "id": "restaurant-8326540935",
      "name": "Cuisine AuntDai",
      "coordinates": [-73.5803915, 45.4943292],
      "address": "1448 Rue Saint-Mathieu, Montréal, Québec, H3H 2H9",
      "type": "restaurant",
      "openingHours": {
        "isOpen": true,
        "hours": "Typically 11:00-22:00"
      },
      "description": "Chinese restaurant (http://auntdai.com)"
    },
    {
      "id": "restaurant-8354577775",
      "name": "Hidden Fish",
      "coordinates": [-73.5743941, 45.4977411],
      "address": "1233 Rue de la Montagne, Montréal, Quebec, h3g1z2",
      "type": "restaurant",
      "openingHours": {
        "isOpen": false,
        "hours": "Mo-Fr 17:00-22:00"
      },
      "description": "Japanese, Sushi restaurant (https://www.sushihiddenfish.ca/sushi/home/)"
    },
    {
      "id": "bixi-9061291127",
      "name": "Bixi",
      "coordinates": [-73.5777635, 45.4982296],
      "address": "Address unavailable",
      "type": "bixi",
      "openingHours": {
        "isOpen": true,
        "hours": "Unknown"
      },
      "description": "Bike sharing station"
    },
    {
      "id": "bixi-9061291128",
      "name": "Bixi",
      "coordinates": [-73.5792345, 45.4968365],
      "address": "Address unavailable",
      "type": "bixi",
      "openingHours": {
        "isOpen": true,
        "hours": "Unknown"
      },
      "description": "Bike sharing station with 45 docks"
    },
    {
      "id": "restaurant-9689067517",
      "name": "OFish Bishop",
      "coordinates": [-73.5771329, 45.4970806],
      "address": "1429 A Rue Bishop, Montréal, Québec",
      "type": "restaurant",
      "openingHours": {
        "isOpen": true,
        "hours": "Typically 11:00-22:00"
      },
      "description": "Restaurant"
    },
    {
      "id": "restaurant-10017478082",
      "name": "Sana",
      "coordinates": [-73.5737384, 45.4963657],
      "address": "1175A Rue Crescent, Montréal, Québec",
      "type": "restaurant",
      "openingHours": {
        "isOpen": true,
        "hours": "Typically 11:00-22:00"
      },
      "description": "Pakistani, Indian;bangladeshi restaurant"
    },
    {
      "id": "restaurant-10200939734",
      "name": "Notre Endroit",
      "coordinates": [-73.5743612, 45.4948268],
      "address": "1437 Boulevard René-Lévesque Ouest, Montréal, Québec",
      "type": "restaurant",
      "openingHours": {
        "isOpen": true,
        "hours": "Mo-Fr 11:30-22:30; Sa,Su 00:00-22:30"
      },
      "description": "Indian, South_indian restaurant"
    },
    {
      "id": "restaurant-10681843542",
      "name": "Escondite",
      "coordinates": [-73.5732256, 45.4980056],
      "address": "1224 Rue Drummond, Montréal, Québec",
      "type": "restaurant",
      "openingHours": {
        "isOpen": true,
        "hours": "Typically 11:00-22:00"
      },
      "description": "Mexican restaurant"
    },
    {
      "id": "restaurant-10719476606",
      "name": "Misoya",
      "coordinates": [-73.5785398, 45.4978354],
      "address": "2065A Rue Bishop, Montréal, Québec",
      "type": "restaurant",
      "openingHours": {
        "isOpen": true,
        "hours": "Typically 11:00-22:00"
      },
      "description": "Ramen restaurant"
    },
    {
      "id": "restaurant-10911943562",
      "name": "Chef Istanbul",
      "coordinates": [-73.5787705, 45.4962498],
      "address": "1510 Blvd. De Maisonneuve Ouest, Montreal, Quebec H3G 1N1",
      "type": "restaurant",
      "openingHours": {
        "isOpen": true,
        "hours": "Typically 11:00-22:00"
      },
      "description": "Turkish restaurant"
    },
    {
      "id": "restaurant-10916576906",
      "name": "Mon Ami",
      "coordinates": [-73.5772425, 45.4953152],
      "address": "1488 Rue Sainte-Catherine Ouest, Montréal, Québec",
      "type": "restaurant",
      "openingHours": {
        "isOpen": true,
        "hours": "Typically 11:00-22:00"
      },
      "description": "Restaurant"
    },
    {
      "id": "restaurant-10948564134",
      "name": "Crossbar",
      "coordinates": [-73.5731912, 45.4954452],
      "address": "1390 Boulevard René-Lévesque Ouest, Montréal, Québec",
      "type": "restaurant",
      "openingHours": {
        "isOpen": true,
        "hours": "Typically 11:00-22:00"
      },
      "description": "Restaurant"
    },
    {
      "id": "restaurant-11011981782",
      "name": "Gyu-Kaku",
      "coordinates": [-73.5750846, 45.4969878],
      "address": "1255 Rue Crescent, Montréal, Québec, H3G 2B1",
      "type": "restaurant",
      "openingHours": {
        "isOpen": true,
        "hours": "Typically 11:00-22:00"
      },
      "description": "Japanese, Barbecue restaurant (https://www.gyu-kaku.com/montreal/)"
    },
    {
      "id": "restaurant-11065849098",
      "name": "Downtown Dhaba",
      "coordinates": [-73.5801576, 45.4947279],
      "address": "1668 Boul. de Maisonneuve Ouest, Montréal, Québec",
      "type": "restaurant",
      "openingHours": {
        "isOpen": false,
        "hours": "Mo-Su 11:00-23:00"
      },
      "description": "Indian restaurant (https://downtowndhaba.com/)"
    },
    {
      "id": "bixi-11115226176",
      "name": "Bixi",
      "coordinates": [-73.5733981, 45.4960089],
      "address": "Address unavailable",
      "type": "bixi",
      "openingHours": {
        "isOpen": true,
        "hours": "Unknown"
      },
      "description": "Bike sharing station"
    },
    {
      "id": "bixi-11115276148",
      "name": "Bixi",
      "coordinates": [-73.5739705, 45.4985564],
      "address": "Address unavailable",
      "type": "bixi",
      "openingHours": {
        "isOpen": true,
        "hours": "Unknown"
      },
      "description": "Bike sharing station"
    },
    {
      "id": "restaurant-11135270536",
      "name": "Lo",
      "coordinates": [-73.5733823, 45.4969261],
      "address": "Address unavailable",
      "type": "restaurant",
      "openingHours": {
        "isOpen": true,
        "hours": "Typically 11:00-22:00"
      },
      "description": "Restaurant"
    },
    {
      "id": "restaurant-11135270538",
      "name": "Bis Ristorante",
      "coordinates": [-73.5742497, 45.4976955],
      "address": "1229 Rue de la Montagne, Montréal, QC H3G 1Z2",
      "type": "restaurant",
      "openingHours": {
        "isOpen": true,
        "hours": "Typically 11:00-22:00"
      },
      "description": "Italian restaurant"
    },
    {
      "id": "restaurant-11155775797",
      "name": "Sushi Rosa",
      "coordinates": [-73.5732532, 45.4983329],
      "address": "1231 Drummond St, Montreal, Quebec H3G 1V8",
      "type": "restaurant",
      "openingHours": {
        "isOpen": true,
        "hours": "Typically 11:00-22:00"
      },
      "description": "Sushi restaurant"
    },
    {
      "id": "restaurant-11179493519",
      "name": "Poke Bento",
      "coordinates": [-73.5804334, 45.4943508],
      "address": "1452 St Mathieu St B, Montreal, Quebec H3H 2H9",
      "type": "restaurant",
      "openingHours": {
        "isOpen": true,
        "hours": "Typically 11:00-22:00"
      },
      "description": "Restaurant"
    },
    {
      "id": "bixi-11179493520",
      "name": "Bixi",
      "coordinates": [-73.5767445, 45.4957423],
      "address": "Address unavailable",
      "type": "bixi",
      "openingHours": {
        "isOpen": true,
        "hours": "Unknown"
      },
      "description": "Bike sharing station"
    },
    {
      "id": "bixi-11179532875",
      "name": "Bixi",
      "coordinates": [-73.5761128, 45.4966664],
      "address": "Address unavailable",
      "type": "bixi",
      "openingHours": {
        "isOpen": true,
        "hours": "Unknown"
      },
      "description": "Bike sharing station with 19 docks"
    },
    {
      "id": "bixi-11179539620",
      "name": "Bixi",
      "coordinates": [-73.5790823, 45.4939028],
      "address": "Address unavailable",
      "type": "bixi",
      "openingHours": {
        "isOpen": true,
        "hours": "Unknown"
      },
      "description": "Bike sharing station with 31 docks"
    },
    {
      "id": "restaurant-11179540822",
      "name": "Kinka Izakaya",
      "coordinates": [-73.5786514, 45.4941098],
      "address": "4006 Saint-Catherine St W, Montreal, Quebec H3Z 1P2",
      "type": "restaurant",
      "openingHours": {
        "isOpen": false,
        "hours": "\"en construction\""
      },
      "description": "Japanese restaurant"
    },
    {
      "id": "restaurant-11179541063",
      "name": "I am Pho",
      "coordinates": [-73.5803662, 45.4943154],
      "address": "1444 St Mathieu St, Montreal, Quebec H3H 2H9",
      "type": "restaurant",
      "openingHours": {
        "isOpen": true,
        "hours": "Typically 11:00-22:00"
      },
      "description": "Vietnamese restaurant"
    },
    {
      "id": "restaurant-11227911637",
      "name": "DonDonYa",
      "coordinates": [-73.5772686, 45.4972312],
      "address": "1433A Bishop St, Montreal, Quebec H3G 2E4",
      "type": "restaurant",
      "openingHours": {
        "isOpen": true,
        "hours": "Typically 11:00-22:00"
      },
      "description": "Restaurant"
    },
    {
      "id": "restaurant-11247224077",
      "name": "Chatpata",
      "coordinates": [-73.5804748, 45.4957079],
      "address": "1620 Av. Lincoln, Montréal, QC H3H 1G9",
      "type": "restaurant",
      "openingHours": {
        "isOpen": true,
        "hours": "Typically 11:00-22:00"
      },
      "description": "Chinese, Indian restaurant"
    },
    {
      "id": "restaurant-11265575969",
      "name": "La Hueca by Masa",
      "coordinates": [-73.577705, 45.4945243],
      "address": "Le Faubourg Sainte Catherine, 1616 Saint-Catherine St W, Montreal, Quebec H3H 1L7",
      "type": "restaurant",
      "openingHours": {
        "isOpen": true,
        "hours": "Typically 11:00-22:00"
      },
      "description": "Restaurant"
    },
    {
      "id": "restaurant-11422251669",
      "name": "Patty Slaps",
      "coordinates": [-73.5770217, 45.4960875],
      "address": "1449 Saint-Catherine St W, Montreal, Quebec H3G 1S6",
      "type": "restaurant",
      "openingHours": {
        "isOpen": true,
        "hours": "Typically 11:00-22:00"
      },
      "description": "Restaurant"
    },
    {
      "id": "restaurant-11593040986",
      "name": "Chimaek Gana",
      "coordinates": [-73.58116, 45.4947615],
      "address": "2080 St Mathieu St, Montreal, Quebec H3H 2J4",
      "type": "restaurant",
      "openingHours": {
        "isOpen": true,
        "hours": "Typically 11:00-22:00"
      },
      "description": "Chicken restaurant"
    },
    {
      "id": "restaurant-11598843918",
      "name": "Hazukido",
      "coordinates": [-73.5784704, 45.4946832],
      "address": "1629 Saint-Catherine St W, Montreal, Quebec H3H 1L8",
      "type": "restaurant",
      "openingHours": {
        "isOpen": true,
        "hours": "Typically 11:00-22:00"
      },
      "description": "Dessert, Bubble_tea restaurant"
    },
    {
      "id": "bixi-11817476631",
      "name": "Bixi",
      "coordinates": [-73.5741165, 45.4944575],
      "address": "Address unavailable",
      "type": "bixi",
      "openingHours": {
        "isOpen": true,
        "hours": "Unknown"
      },
      "description": "Bike sharing station"
    },
    {
      "id": "bixi-11817492674",
      "name": "Bixi",
      "coordinates": [-73.5759082, 45.4973152],
      "address": "Address unavailable",
      "type": "bixi",
      "openingHours": {
        "isOpen": true,
        "hours": "Unknown"
      },
      "description": "Bike sharing station"
    },
    {
      "id": "bixi-11817492784",
      "name": "Bixi",
      "coordinates": [-73.5734728, 45.4960631],
      "address": "Address unavailable",
      "type": "bixi",
      "openingHours": {
        "isOpen": true,
        "hours": "Unknown"
      },
      "description": "Bike sharing station"
    },
    {
      "id": "bixi-11817492798",
      "name": "Bixi",
      "coordinates": [-73.5743666, 45.4984889],
      "address": "Address unavailable",
      "type": "bixi",
      "openingHours": {
        "isOpen": true,
        "hours": "Unknown"
      },
      "description": "Bike sharing station with 19 docks"
    },
    {
      "id": "restaurant-11910507327",
      "name": "Garage Beirut",
      "coordinates": [-73.5761753, 45.4952601],
      "address": "1238 Rue Mackay, Montréal, QC, H3G 2H4",
      "type": "restaurant",
      "openingHours": {
        "isOpen": true,
        "hours": "Typically 11:00-22:00"
      },
      "description": "Restaurant"
    },
    {
      "id": "restaurant-11948947033",
      "name": "Fondue Haidilao",
      "coordinates": [-73.5739593, 45.4987693],
      "address": "1194 Saint-Catherine St W, Montreal, Quebec H3B 1K1",
      "type": "restaurant",
      "openingHours": {
        "isOpen": false,
        "hours": "Mo-Su 11:00-04:00"
      },
      "description": "Asian restaurant"
    },
    {
      "id": "restaurant-12155458652",
      "name": "sparta chicken",
      "coordinates": [-73.5768958, 45.4948492],
      "address": "1235 Rue Guy, Montréal, Québec, H3H 2K5",
      "type": "restaurant",
      "openingHours": {
        "isOpen": false,
        "hours": "13:00-3:00"
      },
      "description": "Greek_fried_chiken restaurant"
    }
  ]
}
